________Date,_________Time,______Sample,____Latitude,___Longitude,___Sun_angle,Day_or_night,______Sublat,_____Sublong,____CPU_temp,__Sense_temp,__Sense_Pres,___Sense_Hum,_______pitch,________roll,_________yaw,________magX,________magY,________magZ,________accX,________accY,________accZ,_______gyroX,_______gyroY,_______gyroZ
210419,174811,1,-45.477712,30.325951,-27.386497,Night,-45:28:39.8,30:19:33.4,37.39,31.95,982.26,31.39,2.3162,9.9276,294.6051,2.499,9.9409,16.1499,-0.0012,0.0046,0.018,0.2695,0.2354,0.08
210419,174822,2,-45.804051,31.180575,-27.930781,Night,-45:48:14.6,31:10:50.1,36.86,31.95,982.25,30.78,6.0646,127.7394,9.6506,5.0863,20.8367,33.1848,-0.0015,0.0039,0.0163,0.2683,0.2357,0.0773
210419,174833,3,-46.123219,32.04569,-28.473146,Night,-46:07:23.6,32:02:44.5,36.32,31.88,982.24,31.06,298.9372,244.7195,338.4973,6.3629,25.4535,39.951,-0.0012,0.0044,0.0173,0.2686,0.2342,0.0788
210419,174844,4,-46.435051,32.9213,-29.01353,Night,-46:26:06.2,32:55:16.7,36.32,31.9,982.25,31.04,11.0716,25.6617,304.3151,6.8583,27.2587,42.9246,-0.0002,0.0039,0.0188,0.2655,0.2323,0.0791
210419,174856,5,-46.766674,33.888455,-29.600698,Night,-46:46:00.0,33:53:18.4,36.32,31.97,982.26,31.02,354.0399,139.1787,16.1243,7.2649,28.2195,44.1317,-0.0015,0.0044,0.018,0.268,0.2333,0.077
210419,174907,6,-47.062633,34.785928,-30.136721,Night,-47:03:45.5,34:47:09.3,36.86,31.9,982.28,31.13,299.6723,276.5698,317.079,7.6837,28.8951,45.1061,-0.0015,0.0041,0.0166,0.2649,0.2348,0.0794
210419,174918,7,-47.350751,35.693793,-30.670555,Night,-47:21:02.7,35:41:37.7,36.86,31.88,982.27,31.01,17.7525,39.0568,312.5518,7.921,29.4085,45.0616,-0.001,0.0041,0.0163,0.2667,0.2342,0.0791
210419,174930,8,-47.655913,36.695956,-31.250332,Night,-47:39:21.3,36:41:45.4,36.32,31.81,982.26,30.8,345.6405,149.1465,19.8565,8.6559,29.1883,45.1574,-0.001,0.0041,0.019,0.2667,0.232,0.0794
210419,174941,9,-47.927089,37.625303,-31.779347,Night,-47:55:37.5,37:37:31.1,36.32,31.92,982.26,31.11,304.9156,296.6377,304.9774,8.6018,29.8682,45.4504,-0.0015,0.0041,0.0166,0.267,0.2323,0.0779
210419,174952,10,-48.189905,38.564764,-32.305944,Night,-48:11:23.7,38:33:53.2,36.32,31.92,982.26,31.39,21.1453,50.0103,320.7667,8.8937,29.9821,45.3762,-0.0012,0.0039,0.0173,0.2655,0.2336,0.0785
210419,175003,11,-48.444199,39.514219,-32.830042,Night,-48:26:39.1,39:30:51.2,36.86,31.9,982.26,30.72,338.2735,157.0284,21.6788,8.7528,30.4504,45.6833,-0.0012,0.0041,0.0163,0.2664,0.2329,0.0785
210419,175015,12,-48.711707,40.561205,-33.39884,Night,-48:42:42.1,40:33:40.3,36.86,31.76,982.27,31.44,310.1511,310.4269,297.3951,8.7435,30.5339,46.1546,-0.001,0.0046,0.0175,0.2664,0.2314,0.0773
210419,175026,13,-48.947663,41.531044,-33.917452,Night,-48:56:51.6,41:31:51.8,35.78,31.85,982.27,30.83,21.3292,60.1552,327.7467,8.6105,30.8485,45.5224,-0.0015,0.0053,0.0158,0.2643,0.2323,0.0791
210419,175037,14,-49.174606,42.510346,-34.433309,Night,-49:10:28.6,42:30:37.2,35.78,31.77,982.26,30.8,330.9662,162.2507,22.3414,8.7266,31.2146,45.7486,-0.0007,0.0046,0.0163,0.2683,0.2336,0.08
210419,175048,15,-49.392376,43.4989,-34.946325,Night,-49:23:32.6,43:29:56.0,36.32,31.81,982.29,30.75,313.7853,319.6101,294.2002,9.0799,31.8557,45.8449,-0.0007,0.0039,0.019,0.2652,0.2311,0.0788
210419,175100,16,-49.619306,44.587588,-35.502627,Night,-49:37:09.5,44:35:15.3,36.32,31.88,982.27,30.72,22.0379,66.2431,333.1687,8.9826,32.3216,45.6944,-0.0015,0.0036,0.0171,0.2655,0.2329,0.0785
210419,175111,17,-49.817409,45.594685,-36.009403,Night,-49:49:02.7,45:35:40.9,36.32,31.72,982.27,30.7,326.9854,166.1303,23.215,9.4174,32.5927,46.1851,-0.0015,0.0056,0.0158,0.2701,0.2345,0.0785
210419,175122,18,-50.005884,46.610225,-36.51304,Night,-50:00:21.2,46:36:36.8,35.78,31.77,982.25,30.84,316.9939,325.7358,292.8701,9.5973,32.7833,45.7261,-0.0012,0.0051,0.019,0.2661,0.2342,0.0797
210419,175133,19,-50.200343,47.727354,-37.058779,Night,-50:12:01.2,47:43:38.5,35.78,31.83,982.3,31.09,21.3784,72.3141,337.9034,9.6863,33.2196,45.5664,-0.001,0.0051,0.0163,0.2661,0.2345,0.0764
210419,175145,20,-50.368233,48.759529,-37.555546,Night,-50:22:05.6,48:45:34.3,36.32,31.72,982.29,30.59,322.7215,169.4535,23.8557,9.8155,33.7956,45.3538,-0.0005,0.0053,0.0158,0.267,0.2296,0.077
210419,175156,21,-50.526075,49.799128,-38.04886,Night,-50:31:33.9,49:47:56.9,36.32,31.74,982.27,30.75,320.0625,330.8446,291.0362,10.2863,34.1341,45.1707,-0.0012,0.0044,0.0178,0.2667,0.2342,0.0797
210419,175207,22,-50.673744,50.845772,-38.538618,Night,-50:40:25.5,50:50:44.8,35.78,31.76,982.21,28.26,20.8051,77.1254,340.788,10.6621,34.089,45.0154,-0.0012,0.0036,0.0156,0.2674,0.2326,0.0782
210419,175218,23,-50.8231,51.995139,-39.068709,Night,-50:49:23.2,51:59:42.5,35.78,31.72,982.23,30.84,319.0494,172.5686,23.0159,11.0782,34.4337,44.5726,-0.001,0.0039,0.0175,0.2677,0.2314,0.0803
210419,175230,24,-50.949127,53.055219,-39.550661,Night,-50:56:56.9,53:03:18.8,36.32,31.81,982.26,30.95,341.8856,353.7443,291.0059,10.9442,34.7462,44.7814,-0.001,0.0029,0.0161,0.2634,0.2339,0.0782
210419,175241,25,-51.064639,54.121056,-40.028699,Night,-51:03:52.7,54:07:15.8,35.78,31.54,982.25,30.73,14.7361,104.4475,0.1185,11.4083,35.2607,45.152,-0.001,0.0046,0.0151,0.2655,0.2326,0.0776
210419,175252,26,-51.169544,55.192194,-40.502694,Night,-51:10:10.4,55:11:31.9,35.78,31.68,982.25,30.94,303.9861,202.0525,10.7712,11.8649,35.8607,44.9118,-0.0012,0.0036,0.0171,0.267,0.2354,0.0776
210419,175303,27,-51.271781,56.366201,-41.01503,Night,-51:16:18.4,56:21:58.3,35.78,31.63,982.26,31.51,357.6996,9.8666,297.3047,12.2989,35.9741,44.9039,-0.0012,0.0053,0.0161,0.2661,0.2326,0.0794
210419,175315,28,-51.354225,57.446884,-41.480173,Night,-51:21:15.2,57:26:48.8,35.78,31.58,982.33,31.35,5.1479,123.8084,11.3784,12.3509,36.4911,44.4402,-0.001,0.0044,0.0156,0.2643,0.2342,0.0779
210419,175326,29,-51.425816,58.531354,-41.940876,Night,-51:25:32.9,58:31:52.9,35.78,31.63,982.3,31.06,296.9594,238.8048,346.1077,12.9793,36.5403,44.8676,-0.001,0.0046,0.0156,0.2674,0.2333,0.0791
210419,175337,30,-51.486485,59.619096,-42.397002,Night,-51:29:11.3,59:37:08.7,35.78,31.65,982.32,31.32,8.2854,24.9243,305.2625,13.3408,37.1335,44.7778,-0.001,0.0032,0.0141,0.2634,0.2336,0.0791
210419,175348,31,-51.54016,60.80884,-42.88921,Night,-51:32:24.6,60:48:31.8,35.78,31.63,982.32,31.58,354.2335,136.8906,17.6337,13.2909,37.3345,44.1636,-0.001,0.0029,0.0161,0.2664,0.2342,0.0785
210419,175400,32,-51.577849,61.901704,-43.3353,Night,-51:34:40.3,61:54:06.1,36.32,31.59,982.29,31.15,297.4108,273.5404,320.1575,13.8629,37.856,43.7163,-0.0007,0.0046,0.0158,0.268,0.2348,0.0791
210419,175411,33,-51.604483,62.996187,-43.776373,Night,-51:36:16.1,62:59:46.3,35.78,31.54,982.36,31.19,15.358,37.8493,312.4711,14.2634,38.4234,43.87,-0.0012,0.0051,0.0127,0.2661,0.2336,0.0782
210419,175422,34,-51.620049,64.091715,-44.212258,Night,-51:37:12.2,64:05:30.2,35.78,31.67,982.34,31.26,345.3861,147.1314,20.6667,14.7381,38.8516,43.8888,-0.0007,0.0039,0.0168,0.2646,0.2308,0.0791
210419,175434,35,-51.624383,65.287401,-44.681684,Night,-51:37:27.8,65:17:14.6,35.78,31.67,982.32,30.97,303.2922,296.0211,305.6572,14.6876,39.0928,43.4884,-0.0015,0.0039,0.0195,0.2652,0.2323,0.0806
210419,175445,36,-51.616761,66.383346,-45.106231,Night,-51:37:00.3,66:23:00.0,35.24,31.59,982.3,31.2,19.9663,48.6046,320.5085,15.0129,39.4432,43.1611,-0.001,0.0039,0.0151,0.2658,0.2311,0.0773
210419,175456,37,-51.598056,67.478622,-45.525099,Night,-51:35:53.0,67:28:43.0,35.78,31.59,982.29,31.08,338.9384,154.6031,22.6705,15.1893,39.7738,42.9278,-0.0012,0.0034,0.0168,0.2652,0.2311,0.0788
210419,175507,38,-51.568283,68.572681,-45.938124,Night,-51:34:05.8,68:34:21.7,35.78,31.54,982.35,31.35,308.3526,308.1214,299.1987,15.4214,40.0558,42.9551,-0.0017,0.0034,0.0144,0.2664,0.232,0.0776
210419,175519,39,-51.523214,69.76416,-46.38182,Night,-51:31:23.6,69:45:51.0,35.78,31.58,982.3,31.03,21.7757,57.0005,326.7066,15.99,40.3116,42.454,-0.0007,0.0041,0.0156,0.2664,0.2326,0.0779
210419,175530,40,-51.470397,70.853896,-46.782056,Night,-51:28:13.4,70:51:14.0,35.78,31.54,982.26,31.56,333.0501,160.59,22.9247,16.2601,40.6203,42.4632,-0.0012,0.0053,0.0175,0.2674,0.2326,0.0782
210419,175541,41,-51.406626,71.94073,-47.175895,Night,-51:24:23.9,71:56:26.6,35.78,31.58,982.27,30.97,312.8802,317.4913,295.1629,16.6957,40.8647,42.0792,-0.0012,0.0053,0.019,0.267,0.2317,0.0788
210419,175552,42,-51.331955,73.024134,-47.563153,Night,-51:19:55.0,73:01:26.9,35.78,31.58,982.28,31.38,21.7975,64.4124,332.3752,17.1369,41.1179,41.7359,-0.0015,0.0046,0.0166,0.2667,0.232,0.0782
210419,175604,43,-51.238143,74.201522,-47.977892,Night,-51:14:17.3,74:12:05.5,35.78,31.56,982.26,31.31,328.5741,164.7098,23.754,17.4332,41.3291,41.5878,-0.0017,0.0044,0.0151,0.2661,0.2311,0.08
210419,175615,44,-51.140901,75.276116,-48.350783,Night,-51:08:27.2,75:16:34.0,35.78,31.61,982.26,31.46,316.338,322.4159,294.9357,17.3315,41.4884,41.1717,-0.0012,0.0041,0.018,0.2664,0.2308,0.0791
210419,175626,45,-51.032988,76.345737,-48.716495,Night,-51:01:58.8,76:20:44.7,36.32,31.4,982.26,31.24,21.5204,69.489,337.1491,17.5737,42.0888,41.2929,-0.0017,0.0051,0.0154,0.2664,0.2302,0.0785
210419,175637,46,-50.914494,77.409922,-49.074837,Night,-50:54:52.2,77:24:35.7,35.78,31.4,982.28,31.17,324.861,167.5822,25.1708,17.5935,42.498,41.2819,-0.0007,0.0039,0.0151,0.2677,0.2351,0.0785
210419,175649,47,-50.773273,78.564114,-49.457116,Night,-50:46:23.8,78:33:50.8,35.78,31.5,982.28,31.32,318.0477,326.6321,294.7398,17.7882,43.3557,40.4076,-0.0015,0.0041,0.0166,0.2652,0.2336,0.0791
210419,175700,48,-50.632981,79.615485,-49.799387,Night,-50:37:58.7,79:36:55.7,35.78,31.43,982.28,31.57,21.8535,73.0675,340.4673,18.0677,43.7545,40.1058,-0.0012,0.0032,0.0171,0.2649,0.2345,0.0791
210419,175711,49,-50.482434,80.660094,-50.13366,Night,-50:28:56.8,80:39:36.3,35.78,31.56,982.34,31.41,322.8138,171.1314,24.4711,18.2027,43.7129,39.7855,-0.0007,0.0036,0.0175,0.2698,0.2339,0.08
210419,175722,50,-50.32175,81.697539,-50.459723,Night,-50:19:18.3,81:41:51.1,35.78,31.49,982.26,30.98,320.7837,329.8373,294.3846,18.503,43.5094,39.6585,-0.001,0.0034,0.0183,0.2652,0.2317,0.0794
210419,175734,51,-50.135047,82.820695,-50.805816,Night,-50:08:06.2,82:49:14.5,35.78,31.59,982.25,31.69,21.2875,76.2929,343.2036,18.7676,44.1612,39.7661,-0.0005,0.0044,0.0156,0.2655,0.2314,0.076
210419,175745,52,-49.953582,83.842,-51.114031,Night,-49:57:12.9,83:50:31.2,35.78,31.4,982.3,31.4,320.4521,172.8247,24.8402,18.9994,44.1727,39.6289,-0.0015,0.0032,0.0161,0.2674,0.2323,0.0803
210419,175756,53,-49.762392,84.855074,-51.413375,Night,-49:45:44.6,84:51:18.3,35.78,31.41,982.26,31.28,341.2094,352.79,293.1859,19.0702,44.0205,38.6786,-0.0007,0.0036,0.0175,0.2664,0.229,0.0797
210419,175807,54,-49.54289,85.950513,-51.729575,Night,-49:32:34.4,85:57:01.8,35.78,31.4,982.29,31.15,14.4888,103.71,1.6163,19.1559,44.4165,38.3711,-0.001,0.0044,0.0175,0.2683,0.2329,0.0776
210419,175819,55,-49.331817,86.945439,-52.009701,Night,-49:19:54.5,86:56:43.6,35.78,31.43,982.28,31.68,303.8495,200.6899,12.9914,19.4621,44.9318,37.8886,-0.001,0.0036,0.0188,0.2664,0.2326,0.0803
210419,175830,56,-49.111468,87.931282,-52.280303,Night,-49:06:41.3,87:55:52.6,35.78,31.4,982.25,31.3,356.396,10.3236,299.3159,19.4966,45.4061,37.4721,-0.0015,0.0049,0.0178,0.2683,0.2339,0.0803
210419,175841,57,-48.881994,88.907807,-52.541172,Night,-48:52:55.2,88:54:28.1,35.78,31.38,982.25,31.44,4.1397,121.5964,13.6916,19.8377,45.4757,37.3414,-0.0002,0.0034,0.0185,0.2652,0.2311,0.0782
210419,175853,58,-48.621436,89.962238,-52.81441,Night,-48:37:17.2,89:57:44.1,35.78,31.43,982.28,31.45,296.2159,236.3209,350.3884,19.9974,45.532,36.9628,-0.001,0.0046,0.0188,0.2655,0.2326,0.0773
210419,175904,59,-48.373391,90.918642,-53.054259,Night,-48:22:24.2,90:55:07.1,35.78,31.38,982.23,30.01,7.1169,24.0655,307.4574,20.5658,45.4295,36.795,-0.0012,0.0046,0.0183,0.2631,0.2342,0.0791
210419,175915,60,-48.116712,91.865156,-53.283733,Night,-48:07:00.2,91:51:54.6,34.7,31.29,982.3,31.65,355.6996,134.9321,21.3763,20.6829,45.545,36.3356,-0.0012,0.0041,0.0193,0.264,0.2326,0.0779
210419,175926,61,-47.851564,92.801637,-53.502637,Night,-47:51:05.6,92:48:05.9,35.78,31.36,982.27,31.44,297.2134,267.5989,329.1078,20.9802,45.5045,35.0815,-0.0007,0.0036,0.0144,0.2658,0.2311,0.0788
210419,175938,62,-47.552843,93.811672,-53.729157,Night,-47:33:10.2,93:48:42.0,35.78,31.43,982.27,31.22,14.1055,34.9109,315.5655,21.1969,45.6508,35.2252,-0.0015,0.0039,0.0144,0.2667,0.2323,0.0785
210419,175949,63,-47.270513,94.726808,-53.925337,Night,-47:16:13.8,94:43:36.5,35.78,31.41,982.26,32.06,347.4147,144.3092,24.253,21.2826,46.0821,35.1055,-0.0015,0.0044,0.0163,0.2643,0.2339,0.0785
210419,180000,64,-46.980223,95.631603,-54.110357,Night,-46:58:48.8,95:37:53.8,36.32,31.32,982.25,31.58,301.0602,290.8128,312.8022,21.5521,46.0375,34.5284,-0.0012,0.0041,0.0178,0.2689,0.2305,0.0782
210419,180011,65,-46.682133,96.525996,-54.284052,Night,-46:40:55.7,96:31:33.6,34.7,31.29,982.24,31.69,18.5403,45.4979,322.3,21.5626,46.3084,34.1631,-0.0015,0.0036,0.0156,0.2661,0.2326,0.0788
210419,180023,66,-46.348253,97.489763,-54.460411,Night,-46:20:53.7,97:29:23.1,36.32,31.29,982.25,31.37,340.8387,152.5119,25.6196,21.4786,46.5693,33.6872,-0.001,0.0049,0.0166,0.2667,0.2326,0.08
210419,180034,67,-46.034403,98.362265,-54.609869,Night,-46:02:03.8,98:21:44.2,35.78,31.36,982.27,31.8,306.8104,304.2087,304.9878,21.6057,46.6081,32.5732,-0.0007,0.0044,0.0158,0.264,0.2329,0.0788
210419,180045,68,-45.713264,99.224275,-54.747504,Night,-45:42:47.8,99:13:27.4,35.78,31.49,982.3,31.4,21.4308,54.5047,328.0833,21.5464,46.5745,32.0502,-0.0015,0.0044,0.0156,0.2677,0.2339,0.0788
210419,180056,69,-45.385005,100.075788,-54.873169,Night,-45:23:06.0,100:04:32.8,35.78,31.25,982.25,31.46,335.4149,158.4512,26.9899,21.007,46.7036,31.5439,-0.0007,0.0046,0.0175,0.2652,0.2311,0.0785
210419,180108,70,-45.018976,100.992769,-54.996454,Night,-45:01:08.3,100:59:34.0,35.78,31.34,982.24,31.67,311.6152,312.9006,301.5959,21.4994,46.7383,31.5138,-0.0012,0.0044,0.0178,0.2649,0.2302,0.0806
210419,180119,71,-44.676353,101.822425,-55.096677,Night,-44:40:34.9,101:49:20.7,35.78,31.38,982.27,31.85,22.3387,61.3715,334.0667,21.6788,46.6799,31.2055,-0.0012,0.0036,0.0149,0.2652,0.2329,0.0794
210419,180130,72,-44.327105,102.641685,-55.184568,Night,-44:19:37.6,102:38:30.1,35.78,31.34,982.26,31.42,331.0884,163.756,26.8776,21.9948,46.8945,30.497,-0.001,0.0034,0.0185,0.2646,0.232,0.0788
210419,180141,73,-43.93874,103.523634,-55.266264,Night,-43:56:19.5,103:31:25.1,35.78,31.21,982.23,31.22,315.9694,318.4573,299.2935,22.0102,46.5132,29.9789,-0.0012,0.0036,0.0175,0.2674,0.2323,0.0785
210419,180153,74,-43.576153,104.321359,-55.32806,Night,-43:34:34.1,104:19:16.9,35.78,31.34,982.23,31.38,23.4997,67.6492,337.6349,22.0815,46.7884,29.5459,-0.0017,0.0039,0.0178,0.268,0.2329,0.08
210419,180204,75,-43.207422,105.108893,-55.377272,Night,-43:12:26.7,105:06:32.0,35.24,31.27,982.24,30.99,327.5898,167.6371,25.9833,22.0484,47.0016,29.4291,-0.001,0.0041,0.0161,0.2631,0.2345,0.0785
210419,180215,76,-42.832704,105.886333,-55.41383,Night,-42:49:57.7,105:53:10.8,35.78,31.2,982.28,31.66,318.913,323.5278,297.9018,21.8685,47.0913,29.0683,-0.001,0.0041,0.0175,0.2667,0.2326,0.0797
210419,180226,77,-42.417264,106.723044,-55.439242,Night,-42:25:02.2,106:43:23.0,35.24,31.25,982.26,31.55,24.2846,71.6749,341.3215,21.8941,46.4537,29.1862,-0.001,0.0046,0.0166,0.2655,0.2329,0.0794
210419,180238,78,-42.030501,107.479693,-55.449241,Night,-42:01:49.8,107:28:46.9,35.78,31.29,982.27,31.93,325.5336,171.5619,25.6539,21.7862,46.5998,28.8202,-0.0005,0.0041,0.0168,0.2631,0.2308,0.0791
210419,180249,79,-41.638203,108.22656,-55.446513,Night,-41:38:17.5,108:13:35.6,35.78,31.29,982.27,31.26,322.5633,325.4976,297.1431,21.987,46.7492,27.9669,-0.0012,0.0046,0.0161,0.271,0.2336,0.0791
210419,180300,80,-41.240511,108.963763,-55.431063,Night,-41:14:25.8,108:57:49.5,35.78,31.16,982.26,31.53,24.567,75.3232,343.3645,21.6544,46.9203,27.4942,-0.0007,0.0036,0.0151,0.2628,0.232,0.08
210419,180311,81,-40.800678,109.757124,-55.399709,Night,-40:48:02.4,109:45:25.6,35.78,31.32,982.27,32.05,323.3386,174.6305,24.0045,21.5876,46.4034,27.1632,-0.0012,0.0041,0.018,0.2689,0.232,0.08
210419,180323,82,-40.392158,110.474533,-55.357724,Night,-40:23:31.8,110:28:28.3,35.78,31.31,982.25,31.85,342.579,349.9975,295.2806,21.3865,46.3724,26.5027,-0.001,0.0034,0.0188,0.2667,0.2342,0.08
210419,180334,83,-39.978665,111.182687,-55.303103,Night,-39:58:43.2,111:10:57.7,35.78,31.25,982.23,31.71,17.6367,103.7105,2.5879,21.2371,46.5583,25.4116,-0.0015,0.0029,0.0171,0.2667,0.232,0.0779
210419,180345,84,-39.560333,111.881716,-55.235917,Night,-39:33:37.2,111:52:54.2,35.78,31.32,982.26,31.95,307.3322,203.0579,12.2328,21.2996,46.6024,24.7996,-0.0017,0.0034,0.0185,0.2686,0.2323,0.0797
210419,180357,85,-39.098598,112.634054,-55.148378,Night,-39:05:55.0,112:38:02.6,35.78,31.12,982.24,31.52,359.0315,7.0648,300.0664,21.0082,46.2417,24.5423,-0.0012,0.0044,0.0173,0.2664,0.232,0.0815
210419,180408,86,-38.670561,113.314464,-55.055163,Night,-38:40:14.0,113:18:52.1,35.78,31.2,982.3,31.96,8.0319,124.0223,14.3779,21.1421,46.2924,24.3698,-0.0015,0.0049,0.0166,0.2667,0.2302,0.0788
210419,180419,87,-38.23807,113.986199,-54.949647,Night,-38:14:17.1,113:59:10.3,35.24,31.2,982.28,31.61,300.4596,237.111,348.9369,21.1401,46.1434,24.2609,-0.001,0.0034,0.0188,0.2652,0.2311,0.0791
210419,180430,88,-37.801245,114.649397,-54.831949,Night,-37:48:04.5,114:38:57.8,35.24,31.14,982.25,31.47,10.0887,21.4295,305.9802,20.4024,45.9854,24.2672,-0.001,0.0049,0.0178,0.2677,0.2308,0.0806
210419,180442,89,-37.319911,115.363343,-54.689793,Night,-37:19:11.7,115:21:48.0,34.7,31.25,982.31,31.69,358.231,137.4975,18.7008,20.35,45.6481,23.9695,-0.0007,0.0034,0.0202,0.264,0.2336,0.0767
210419,180453,90,-36.874412,116.009206,-54.547011,Night,-36:52:27.9,116:00:33.1,35.24,31.18,982.31,31.87,301.2954,267.1577,326.8263,20.2726,45.4494,23.2342,-0.0012,0.0039,0.019,0.268,0.2305,0.0785
210419,180504,91,-36.424938,116.646995,-54.392468,Night,-36:25:29.8,116:38:49.2,35.78,31.25,982.25,31.5,17.5714,34.4729,312.8356,20.0462,45.3602,22.7299,-0.0015,0.0036,0.0158,0.2637,0.2326,0.0785
210419,180515,92,-35.971598,117.276889,-54.226299,Night,-35:58:17.8,117:16:36.8,35.24,31.25,982.28,31.93,348.6344,147.2696,20.613,20.1741,45.3104,22.7372,-0.0007,0.0044,0.0171,0.2658,0.2296,0.0791
210419,180527,93,-35.472758,117.955222,-54.031963,Night,-35:28:21.9,117:57:18.8,35.78,31.16,982.26,31.59,304.7016,290.0353,309.9897,20.137,45.0265,22.1246,0.0616,0.0034,0.0168,0.2658,0.2339,0.0797
210419,180538,94,-35.011679,118.569092,-53.842036,Night,-35:00:42.0,118:34:08.7,35.78,31.29,982.28,31.46,19.8563,44.4673,318.3694,19.7955,45.1406,21.7454,-0.001,0.0032,0.018,0.2658,0.2323,0.0803
210419,180549,95,-34.547052,119.175531,-53.641024,Night,-34:32:49.4,119:10:31.9,35.78,31.29,982.26,32.06,341.8739,153.1451,22.2628,19.1705,44.7453,21.728,-0.0015,0.0044,0.0173,0.2655,0.2323,0.0785
210419,180600,96,-34.036267,119.828825,-53.409299,Night,-34:02:10.6,119:49:43.8,35.78,31.14,982.27,31.71,308.6757,301.8313,303.7137,19.4985,44.4655,21.0248,-0.0012,0.0044,0.0175,0.2683,0.2345,0.0785
210419,180612,97,-33.564554,120.420238,-53.185706,Night,-33:33:52.4,120:25:12.9,35.24,31.16,982.25,31.61,22.9235,53.6857,325.087,19.2824,44.5431,20.5247,-0.001,0.0041,0.0171,0.2652,0.232,0.0809
210419,180623,98,-33.089596,121.004711,-52.951608,Night,-33:05:22.5,121:00:17.0,35.78,31.09,982.31,31.41,336.8055,159.9327,22.1318,18.6517,44.3499,20.3626,-0.0007,0.0034,0.0166,0.2661,0.2299,0.0788
210419,180634,99,-32.61149,121.582381,-52.707217,Night,-32:36:41.4,121:34:56.6,35.78,31.29,982.27,31.73,313.5283,310.8904,298.4917,18.4606,43.7698,20.0639,-0.0007,0.0041,0.0175,0.2646,0.2326,0.0785
210419,180645,100,-32.086429,122.205007,-52.429096,Night,-32:05:11.1,122:12:18.0,34.7,31.14,982.25,31.54,24.6921,60.819,328.8707,18.1948,43.5153,19.1347,-0.0007,0.0039,0.0158,0.2634,0.232,0.0776
210419,180657,101,-31.602022,122.768962,-52.163835,Night,-31:36:07.3,122:46:08.3,35.78,31.14,982.23,31.36,332.7885,164.8968,21.2825,18.1235,43.6294,19.1649,-0.0022,0.0036,0.0183,0.2664,0.2323,0.0788
210419,180708,102,-31.114732,123.326592,-51.88891,Night,-31:06:53.0,123:19:35.7,35.78,31.21,982.26,31.69,317.5317,315.8147,296.1263,17.626,43.401,18.6221,-0.001,0.0051,0.0168,0.2634,0.232,0.0779
210419,180719,103,-30.624646,123.878034,-51.604548,Night,-30:37:28.7,123:52:40.9,35.78,31.23,982.26,31.69,25.5586,66.7343,332.7651,17.447,43.4061,18.8098,-0.0012,0.0032,0.0178,0.267,0.2336,0.0794
210419,180730,104,-30.086915,124.472725,-51.283809,Night,-30:05:12.9,124:28:21.8,35.78,31.14,982.23,31.64,331.0265,170.5378,17.5003,17.1981,43.2047,18.7259,-0.0012,0.0049,0.0156,0.2664,0.2333,0.0785
210419,180742,105,-29.591241,125.011723,-50.980375,Night,-29:35:28.5,125:00:42.2,35.78,31.21,982.19,32.01,321.246,319.4099,291.8574,17.1487,42.8973,18.467,-0.0012,0.0036,0.0163,0.2677,0.2305,0.0791
210419,180753,106,-29.09302,125.544983,-50.668153,Night,-29:05:34.9,125:32:41.9,35.78,31.16,982.21,31.8,27.4848,71.5667,332.5966,16.8863,42.5349,17.7729,-0.0012,0.0036,0.0175,0.2655,0.2333,0.0794
210419,180804,107,-28.592319,126.072656,-50.347353,Night,-28:35:32.3,126:04:21.6,35.78,31.12,982.25,31.84,327.4023,174.2803,15.6789,16.8478,42.43,17.3582,-0.0015,0.0039,0.0151,0.264,0.232,0.0782
210419,180816,108,-28.043365,126.642089,-49.987853,Night,-28:02:36.1,126:38:31.5,35.78,31.14,982.24,32.11,324.2082,323.8278,289.6847,16.6282,41.8008,17.1982,-0.0005,0.0032,0.018,0.2658,0.2302,0.0806
210419,180827,109,-27.537723,127.15852,-49.649803,Night,-27:32:15.8,127:09:30.7,35.78,31.16,982.25,31.55,26.8827,75.9885,334.867,16.2017,41.4012,17.4087,-0.0012,0.0039,0.0168,0.2661,0.2326,0.0791
210419,180838,110,-27.029826,127.669787,-49.303826,Night,-27:01:47.4,127:40:11.2,35.78,31.29,982.21,32.15,324.8278,177.0766,14.0943,15.6252,41.4005,17.0093,-0.0015,0.0041,0.0163,0.2677,0.2305,0.0782
210419,180849,111,-26.519745,128.17604,-48.950115,Night,-26:31:11.1,128:10:33.7,35.24,31.09,982.22,31.92,345.3946,348.519,286.8506,15.0892,41.0966,16.3055,-0.0007,0.0046,0.0149,0.2643,0.232,0.0806
210419,180901,112,-25.960876,128.722729,-48.555688,Night,-25:57:39.2,128:43:21.8,35.78,31.25,982.2,32.04,19.536,106.0867,354.6303,14.3123,40.7602,15.5875,-0.001,0.0032,0.0166,0.268,0.2308,0.0797
210419,180912,113,-25.446435,129.218901,-48.186479,Night,-25:26:47.2,129:13:08.0,35.78,31.09,982.2,32.07,308.3465,205.4412,0.875,14.0458,40.3749,15.1732,-0.0012,0.0044,0.0183,0.267,0.2323,0.0782
210419,180923,114,-24.930009,129.710442,-47.810177,Night,-24:55:48.0,129:42:37.6,35.78,31.18,982.22,31.69,0.4364,6.6237,290.8739,13.7371,40.3211,15.1778,-0.0012,0.0056,0.0188,0.2646,0.2305,0.0794
210419,180934,115,-24.411661,130.197503,-47.426955,Night,-24:24:42.0,130:11:51.0,35.24,31.18,982.24,31.62,9.018,124.7433,5.7187,13.1565,40.047,15.7093,-0.0012,0.0041,0.0185,0.2683,0.2317,0.0782
210419,180946,116,-23.844066,130.723865,-47.00124,Night,-23:50:38.6,130:43:25.9,35.24,31.16,982.21,31.95,301.5971,237.7865,339.783,12.7037,40.1802,15.5192,-0.0015,0.0046,0.0161,0.2686,0.2299,0.0806
210419,180957,117,-23.321889,131.201937,-46.604187,Night,-23:19:18.8,131:12:07.0,35.78,31.16,982.19,31.96,10.8351,21.1119,297.862,12.2961,40.1607,14.3145,-0.0012,0.0046,0.0178,0.2652,0.2305,0.0779
210419,181008,118,-22.797971,131.675911,-46.200793,Night,-22:47:52.7,131:40:33.3,34.7,31.09,982.24,32.04,358.45,137.8751,10.9651,11.6491,39.7589,14.2933,-0.0,0.0046,0.0188,0.2658,0.2299,0.0785
210419,181019,119,-22.272369,132.145897,-45.791248,Night,-22:16:20.5,132:08:45.2,35.78,31.09,982.2,31.73,301.6549,267.8857,317.7021,11.621,39.0023,14.3839,-0.0005,0.0046,0.0158,0.2658,0.2348,0.0797
210419,181031,120,-21.697129,132.654199,-45.337665,Night,-21:41:49.7,132:39:15.1,35.78,31.09,982.24,31.39,18.0079,34.3026,303.5502,11.4808,38.6431,14.3119,-0.0012,0.0032,0.0163,0.268,0.2342,0.0788
210419,181042,121,-21.168182,133.116234,-44.915823,Night,-21:10:05.5,133:06:58.4,35.78,31.03,982.21,32.11,349.1063,148.1316,11.7463,10.8222,38.6167,14.0054,-0.0012,0.0049,0.0154,0.2658,0.2342,0.0797
210419,181053,122,-20.637717,133.574649,-44.488359,Night,-20:38:15.8,133:34:28.7,35.24,31.07,982.23,32.4,306.6403,288.367,303.0515,10.44,37.7345,13.4161,-0.0012,0.0049,0.0171,0.2701,0.2314,0.0791
210419,181104,123,-20.057358,134.070739,-44.015815,Night,-20:03:26.5,134:04:14.7,35.24,31.07,982.24,31.67,23.8016,45.3197,310.5105,9.8817,37.309,13.2441,-0.0007,0.0056,0.0171,0.268,0.2323,0.0788
210419,181116,124,-19.523884,134.521942,-43.577129,Night,-19:31:26.0,134:31:19.0,35.24,31.11,982.26,31.6,343.0279,157.1011,12.4189,9.5169,37.3294,12.6559,-0.0012,0.0044,0.0158,0.2628,0.232,0.0797
210419,181127,125,-18.989051,134.969879,-43.133311,Night,-18:59:20.6,134:58:11.6,34.7,31.18,982.2,31.9,312.252,301.5008,294.6364,9.1866,36.9458,12.912,-0.0017,0.0036,0.0166,0.2658,0.2326,0.0803
210419,181138,126,-18.452904,135.414661,-42.684506,Night,-18:27:10.5,135:24:52.8,34.7,31.0,982.19,31.68,26.7054,55.1956,316.205,8.9507,36.575,12.2355,-0.0017,0.0039,0.0161,0.2674,0.2326,0.0791
210419,181149,127,-17.866573,135.896381,-42.189413,Night,-17:51:59.7,135:53:47.0,35.24,31.11,982.24,31.85,337.2568,164.1653,10.4624,8.1528,36.2655,11.7668,-0.0015,0.0044,0.0173,0.2643,0.2275,0.0791
210419,181201,128,-17.327831,136.334893,-41.730683,Night,-17:19:40.2,136:20:05.6,35.78,31.14,982.22,31.78,317.8341,311.0725,288.5314,7.4195,35.6201,12.5109,-0.0015,0.0039,0.0173,0.2634,0.2308,0.0776
210419,181212,129,-16.78792,136.770563,-41.267426,Night,-16:47:16.5,136:46:14.0,35.24,31.14,982.21,31.81,27.7747,63.8892,320.3902,7.0198,35.2909,12.818,-0.0012,0.0032,0.0207,0.2615,0.2323,0.0788
210419,181223,130,-16.246886,137.203515,-40.799763,Night,-16:14:48.8,137:12:12.7,35.24,31.21,982.23,31.8,332.2883,168.7811,9.7954,6.7881,34.9653,13.0097,-0.0015,0.0046,0.0168,0.2643,0.2296,0.0806
210419,181234,131,-15.655434,137.672831,-40.284729,Night,-15:39:19.6,137:40:22.2,35.78,31.07,982.2,31.55,320.7203,316.6759,285.8711,6.4039,34.6896,12.5576,-0.002,0.0046,0.0156,0.2637,0.2329,0.0809
210419,181246,132,-15.11219,138.100387,-39.808316,Night,-15:06:43.9,138:06:01.4,35.78,31.09,982.21,31.7,27.744,68.8071,323.2087,6.3088,34.0165,12.2581,-0.001,0.0041,0.0175,0.2664,0.2336,0.0779
210419,181257,133,-14.567953,138.525539,-39.327895,Night,-14:34:04.6,138:31:31.9,35.24,31.02,982.22,31.7,329.7719,173.3844,7.2017,5.5137,33.3997,11.5654,-0.002,0.0034,0.0151,0.2637,0.2302,0.0794
210419,181308,134,-14.022767,138.948382,-38.843586,Night,-14:01:22.0,138:56:54.2,35.78,31.12,982.18,32.51,324.1614,320.5322,283.18,4.7436,32.9673,11.601,-0.0012,0.0027,0.0173,0.2664,0.2329,0.08
210419,181320,135,-13.426983,139.407125,-38.310975,Night,-13:25:37.1,139:24:25.7,35.78,31.09,982.19,31.79,28.3961,73.7402,324.7352,4.3734,33.0359,11.5306,-0.0007,0.0029,0.0171,0.2661,0.232,0.0788
210419,181331,136,-12.879943,139.82542,-37.818952,Night,-12:52:47.8,139:49:31.5,35.78,31.03,982.2,32.0,327.8219,176.7083,4.5052,3.8914,32.9189,12.0917,-0.001,0.0044,0.018,0.264,0.2317,0.0797
210419,181342,137,-12.332079,140.241706,-37.323395,Night,-12:19:55.5,140:14:30.1,34.7,31.07,982.18,31.84,326.8158,322.3152,280.9082,3.156,32.3355,11.9116,-0.001,0.0049,0.0168,0.2646,0.2299,0.0797
210419,181353,138,-11.783429,140.656053,-36.824432,Night,-11:47:00.3,140:39:21.8,35.78,31.14,982.21,31.78,29.6026,76.9613,325.7218,2.947,31.5678,11.1606,-0.0012,0.0041,0.0171,0.2677,0.2317,0.0794
210419,181405,139,-11.184051,141.105998,-36.276323,Night,-11:11:02.6,141:06:21.6,35.24,31.07,982.21,32.08,326.4689,180.1988,1.5456,2.4664,31.1739,10.9647,-0.0017,0.0046,0.0183,0.2655,0.2336,0.0782
210419,181416,140,-10.633881,141.516629,-35.770548,Night,-10:38:02.0,141:30:59.9,35.78,31.11,982.19,31.91,347.053,347.0168,276.7149,1.5061,31.0221,11.2842,-0.0015,0.0036,0.0158,0.2631,0.2314,0.0797
210419,181427,141,-10.083044,141.925621,-35.261668,Night,-10:04:59.0,141:55:32.2,35.78,31.14,982.16,32.24,22.1337,106.4177,344.2717,1.1228,30.9421,11.5915,-0.0017,0.0049,0.0163,0.2622,0.2351,0.0767
210419,181438,142,-9.531576,142.333069,-34.749776,Night,-9:31:53.7,142:19:59.0,35.24,31.23,982.17,32.43,311.5682,206.9601,349.0999,0.6425,30.3113,11.7646,-0.001,0.0051,0.0151,0.2628,0.2339,0.0797
210419,181450,143,-8.929298,142.775884,-34.188041,Night,-8:55:45.5,142:46:33.2,34.7,31.0,982.21,31.95,1.9334,4.4817,280.0653,0.3727,29.6202,11.6173,-0.0007,0.0034,0.0168,0.2652,0.2305,0.0791
210419,181501,144,-8.376628,143.180381,-33.670162,Night,-8:22:35.9,143:10:49.4,36.32,31.11,982.18,31.94,11.1028,125.2144,353.3,-0.3775,29.3565,11.6771,-0.0012,0.0036,0.0175,0.2652,0.2296,0.0794
210419,181512,145,-7.823439,143.583608,-33.149555,Night,-7:49:24.4,143:35:01.0,35.78,31.03,982.18,32.08,304.6439,237.2668,327.7316,-0.9902,28.6717,11.3729,-0.0007,0.0039,0.0151,0.2667,0.232,0.0797
210419,181523,146,-7.219409,144.022134,-32.578612,Night,-7:13:09.9,144:01:19.7,34.7,31.03,982.22,32.28,12.3751,18.3732,283.7635,-1.6361,27.997,11.0756,-0.0005,0.0046,0.0163,0.2637,0.2317,0.0797
210419,181535,147,-6.665248,144.42297,-32.052582,Night,-6:39:54.9,144:25:22.7,34.7,30.96,982.16,32.01,1.6016,137.8226,357.1533,-2.0059,27.4542,11.4074,-0.001,0.0027,0.0188,0.2677,0.2296,0.0812
210419,181546,148,-6.110677,144.82281,-31.524069,Night,-6:06:38.4,144:49:22.1,35.78,30.96,982.22,31.95,304.825,263.0428,308.0949,-2.2814,27.1402,11.5969,-0.0015,0.0041,0.0154,0.2649,0.2314,0.0803
210419,181557,149,-5.55573,145.221734,-30.993158,Night,-5:33:20.6,145:13:18.2,35.24,31.02,982.18,32.7,20.062,30.7252,288.8734,-2.6366,26.9093,11.718,-0.0012,0.0034,0.0188,0.2652,0.2308,0.0794
210419,181608,150,-4.949944,145.65597,-30.411346,Night,-4:56:59.8,145:39:21.5,35.78,31.03,982.17,32.39,353.6098,148.7401,357.4761,-3.4033,26.4359,11.735,-0.0012,0.0034,0.0173,0.2655,0.2326,0.0788
210419,181620,151,-4.39432,146.053254,-29.875661,Night,-4:23:39.6,146:03:11.7,34.7,31.0,982.17,32.47,320.6846,317.3536,275.0615,-3.8814,26.2464,11.4257,-0.0012,0.0044,0.019,0.2637,0.2326,0.0803
210419,181631,152,-3.838425,146.449884,-29.337807,Night,-3:50:18.3,146:26:59.6,34.7,31.0,982.2,31.97,27.1244,69.0567,312.563,-4.3606,25.6973,11.9694,-0.0015,0.0036,0.0166,0.267,0.232,0.0794
210419,181642,153,-3.282293,146.845939,-28.797857,Night,-3:16:56.3,146:50:45.4,34.7,31.0,982.15,32.05,329.6564,172.1064,357.1586,-4.6328,25.1634,12.257,-0.0012,0.0044,0.0166,0.2652,0.2326,0.0797
210419,181654,154,-2.675372,147.277443,-28.206508,Night,-2:40:31.3,147:16:38.8,34.7,30.94,982.17,31.71,339.7379,344.729,267.6524,-5.2252,24.5845,12.1932,-0.0022,0.0041,0.0163,0.268,0.2308,0.08
210419,181705,155,-2.118852,147.672583,-27.662374,Night,-2:07:07.9,147:40:21.3,35.78,31.09,982.16,31.99,20.6888,99.3705,330.8174,-5.8525,23.9786,11.4798,-0.0017,0.0053,0.0163,0.2658,0.2336,0.0794
210419,181716,156,-1.562197,148.067409,-27.116341,Night,-1:33:43.9,148:04:02.7,34.7,30.93,982.15,32.16,310.9153,197.4502,345.146,-6.492,23.6088,11.7678,-0.0002,0.0032,0.0197,0.2619,0.2333,0.0788
210419,181727,157,-1.005441,148.462003,-26.568478,Night,-1:00:19.6,148:27:43.2,34.7,31.02,982.18,31.86,355.6667,2.9706,268.4633,-7.2583,23.6305,11.9689,-0.001,0.0058,0.0168,0.2674,0.2317,0.0788
210419,181739,158,-0.397994,148.892318,-25.96877,Night,-0:23:52.8,148:53:32.3,35.24,30.89,982.17,32.15,10.5949,119.6365,340.383,-7.9173,23.5784,11.5662,-0.0007,0.0046,0.0163,0.267,0.232,0.0782
210419,181750,159,0.158868,149.286707,-25.417253,Night,0:09:31.9,149:17:12.1,35.24,30.85,982.15,31.82,303.0503,228.1768,323.8567,-8.3448,23.1267,11.8159,-0.001,0.0056,0.0205,0.264,0.232,0.0791
210419,181801,160,0.715728,149.681123,-24.864081,Night,0:42:56.6,149:40:52.0,35.78,31.0,982.14,32.05,7.9692,16.5692,271.2154,-8.7736,22.5772,11.6191,-0.0015,0.0029,0.0168,0.2674,0.2293,0.0779
210419,181812,161,1.272555,150.075662,-24.309296,Night,1:16:21.2,150:04:32.4,34.7,30.89,982.15,31.94,1.7452,134.3051,342.9099,-9.2413,22.1267,11.6514,-0.0012,0.0046,0.0175,0.2622,0.2302,0.0785
210419,181824,162,1.879924,150.506292,-23.702317,Night,1:52:47.7,150:30:22.7,34.7,30.91,982.19,31.7,303.8126,257.9458,298.7746,-9.5785,21.9591,12.1914,-0.0007,0.0029,0.0178,0.2655,0.2326,0.0797
210419,181835,163,2.436573,150.901336,-23.144356,Night,2:26:11.7,150:54:04.8,35.24,30.91,982.22,32.33,17.5883,28.5204,274.1027,-9.8646,21.7564,12.168,-0.0015,0.0036,0.0185,0.2612,0.2329,0.0806
210419,181846,164,2.993085,151.29675,-22.584956,Night,2:59:35.1,151:17:48.3,34.7,30.91,982.19,32.16,355.4352,145.4992,344.5741,-10.2575,21.473,12.2427,-0.0012,0.0036,0.0156,0.2655,0.2317,0.0797
210419,181857,165,3.549428,151.692628,-22.024157,Night,3:32:57.9,151:41:33.5,35.78,30.98,982.11,32.13,308.537,277.0199,284.4816,-10.5632,20.9148,12.7538,-0.0015,0.0041,0.0163,0.2649,0.2311,0.08
210419,181909,166,4.156114,152.125101,-21.410859,Night,4:09:22.0,152:07:30.4,34.7,30.96,982.17,32.32,24.5309,38.3365,278.1444,-11.0079,20.2409,12.8733,-0.0012,0.0036,0.0161,0.2625,0.2329,0.08
210419,181920,167,4.711994,152.522209,-20.847301,Night,4:42:43.2,152:31:20.0,34.7,31.02,982.14,32.11,349.7997,155.8827,341.2704,-11.9186,19.9252,12.8845,-0.0012,0.0049,0.0166,0.2655,0.2326,0.0785
210419,181931,168,5.267601,152.920012,-20.28252,Night,5:16:03.4,152:55:12.0,35.78,30.96,982.22,32.09,325.9369,323.2545,256.3404,-12.7179,19.5463,12.387,-0.0007,0.0046,0.0185,0.2664,0.2339,0.0791
210419,181942,169,5.822899,153.318636,-19.716523,Night,5:49:22.4,153:19:07.1,35.24,30.98,982.18,32.36,28.0932,76.4981,300.112,-13.4355,19.1941,12.7614,-0.001,0.0051,0.0173,0.2658,0.2317,0.0782
210419,181954,170,6.428289,153.754498,-19.097769,Night,6:25:41.8,153:45:16.2,35.78,31.0,982.2,32.06,326.8677,179.9617,335.1466,-13.5963,18.7031,13.0544,-0.0015,0.0044,0.0161,0.2658,0.2333,0.0776
210419,182005,171,6.982834,154.155075,-18.529403,Night,6:58:58.2,154:09:18.3,34.7,31.05,982.2,32.47,344.9422,347.8616,248.9614,-14.0911,18.0874,13.6315,-0.0015,0.0036,0.0168,0.2661,0.2333,0.0794
210419,182016,172,7.536965,154.556703,-17.959988,Night,7:32:13.1,154:33:24.1,35.78,30.98,982.24,32.19,20.0225,104.8542,314.2439,-14.607,17.8506,14.0775,-0.001,0.0044,0.0166,0.2625,0.2336,0.0788
210419,182027,173,8.140958,154.996171,-17.337633,Night,8:08:27.4,154:59:46.2,34.7,30.91,982.19,32.47,310.7125,205.1684,320.1562,-14.7225,17.5207,14.0676,-0.0007,0.0051,0.0178,0.2631,0.2317,0.0794
210419,182039,174,8.69411,155.400327,-16.766108,Night,8:41:38.8,155:24:01.2,35.78,30.98,982.21,32.66,1.1307,3.693,247.7683,-14.9236,16.4816,13.912,-0.001,0.0036,0.0161,0.2634,0.2317,0.0791
210419,182050,175,9.246738,155.805808,-16.193656,Night,9:14:48.3,155:48:20.9,35.24,30.96,982.23,32.39,11.955,125.3282,320.3563,-15.7667,16.2088,14.0624,-0.0012,0.0039,0.0178,0.2652,0.2305,0.0782
210419,182101,176,9.798806,156.212737,-15.620282,Night,9:47:55.7,156:12:45.9,35.78,30.91,982.25,31.97,307.5086,237.1813,294.5512,-16.3129,16.0083,14.1794,-0.0015,0.0044,0.0178,0.2655,0.2323,0.0779
210419,182112,177,10.400381,156.65838,-14.993811,Night,10:24:01.4,156:39:30.2,35.78,30.87,982.28,32.13,13.0242,17.8365,249.9068,-16.9433,15.6126,14.4174,-0.0015,0.0041,0.0173,0.2652,0.2299,0.0797
210419,182124,178,10.951161,157.06856,-14.418697,Night,10:57:04.2,157:04:06.8,35.24,30.94,982.29,32.28,2.6071,139.1343,322.0631,-17.4274,15.3612,14.7503,-0.0007,0.0058,0.0185,0.2634,0.2342,0.0785
210419,182135,179,11.501267,157.480462,-13.842781,Night,11:30:04.6,157:28:49.7,35.24,30.94,982.32,32.06,308.6938,262.2722,273.0473,-17.9777,15.0073,15.34,-0.001,0.0041,0.0161,0.2658,0.2333,0.0797
210419,182146,180,12.05066,157.894166,-13.266113,Night,12:03:02.4,157:53:39.0,35.78,30.96,982.27,32.24,22.5941,28.9603,251.0069,-18.1519,14.5926,15.0332,-0.0012,0.0046,0.0185,0.2655,0.2317,0.0776
210419,182157,181,12.649141,158.347636,-12.636211,Night,12:38:56.9,158:20:51.5,35.24,30.89,982.3,32.29,356.1553,150.036,319.2933,-18.6223,14.402,15.3018,-0.0007,0.0034,0.0136,0.2652,0.2308,0.08
210419,182209,182,13.19692,158.765411,-12.058081,Night,13:11:48.9,158:45:55.5,34.7,30.94,982.34,31.92,313.632,279.4448,257.0271,-19.1274,14.0949,15.7761,-0.001,0.0049,0.0178,0.2658,0.2333,0.08
210419,182220,183,13.743866,159.185263,-11.479322,Night,13:44:37.9,159:11:06.9,34.7,30.84,982.35,32.53,29.724,38.825,253.1999,-19.7693,14.1589,16.3876,-0.001,0.0039,0.0168,0.2631,0.2311,0.08
210419,182231,184,14.28994,159.607314,-10.899943,Night,14:17:23.8,159:36:26.3,34.7,30.91,982.36,32.12,351.3647,159.9662,316.2189,-20.2207,13.5261,16.481,-0.0017,0.0044,0.0166,0.2631,0.229,0.0815
210419,182243,185,14.884613,160.070333,-10.267245,Night,14:53:04.6,160:04:13.2,35.78,30.75,982.3,31.22,329.3493,321.5583,233.7987,-20.4412,13.2259,16.5341,-0.001,0.0049,0.0173,0.2634,0.2333,0.0773
210419,182254,186,15.428728,160.497274,-9.686697,Night,15:25:43.4,160:29:50.2,34.7,30.89,982.29,32.12,30.7851,77.6185,277.0719,-20.657,13.1603,16.4074,-0.001,0.0051,0.0175,0.2594,0.232,0.08
210419,182305,187,15.971841,160.926702,-9.105647,Night,15:58:18.6,160:55:36.1,34.7,30.94,982.32,32.25,328.2801,181.9763,311.1744,-20.6984,12.5771,16.4732,-0.0007,0.0034,0.0163,0.2603,0.2323,0.0785
210419,182316,188,16.513908,161.358725,-8.524118,Night,16:30:50.1,161:21:31.4,35.24,30.89,982.31,32.35,346.1838,346.5442,226.3447,-21.0825,12.4604,16.985,-0.0012,0.0036,0.0183,0.2655,0.2281,0.0785
210419,182328,189,17.104013,161.833109,-7.879617,Night,17:06:14.4,161:49:59.2,34.7,30.98,982.33,32.51,22.343,105.2846,291.5218,-21.4303,12.1983,17.6113,-0.0017,0.0044,0.0163,0.2658,0.2323,0.0791
210419,182339,190,17.643753,162.270883,-7.271782,Night,17:38:37.5,162:16:15.2,35.78,30.94,982.32,32.69,313.7801,208.0854,295.2123,-22.5967,12.0625,17.7339,-0.0007,0.0044,0.0168,0.2689,0.2333,0.0791
210419,182350,191,18.182312,162.71158,-6.647603,Night,18:10:56.3,162:42:41.7,34.7,30.91,982.35,31.98,2.5023,2.8379,225.0828,-23.0561,11.9953,17.7548,-0.0007,0.0032,0.0188,0.264,0.2311,0.0803
210419,182401,192,18.719639,163.155297,-5.9924,Night,18:43:10.7,163:09:19.1,35.78,30.8,982.35,32.33,13.1308,125.1895,297.5023,-23.5221,11.5444,17.9117,-0.0015,0.0053,0.0163,0.2637,0.2287,0.0779
210419,182413,193,19.304358,163.642918,-5.193718,Night,19:18:15.7,163:38:34.5,35.78,30.85,982.35,32.71,307.542,235.6669,272.1907,-23.9347,10.9458,18.2567,-0.0005,0.0041,0.0156,0.2646,0.2299,0.0776
210419,182424,194,19.838962,164.0933,-4.164608,Night,19:50:20.3,164:05:35.9,35.24,30.93,982.34,32.12,12.7717,16.4586,225.749,-24.0322,10.3233,18.7184,-0.0005,0.0049,0.0156,0.2664,0.2345,0.0791
210419,182435,195,20.372187,164.547044,-2.867187,Day,20:22:19.9,164:32:49.4,34.7,30.96,982.36,32.47,3.0847,138.3712,297.7749,-24.5325,10.0925,19.4061,-0.0015,0.0044,0.0185,0.2658,0.2314,0.077
210419,182446,196,20.903983,165.004256,-2.335267,Day,20:54:14.3,165:00:15.3,35.78,30.93,982.35,32.5,307.4038,262.1241,248.9162,-24.7794,9.6614,19.4129,-0.0005,0.0032,0.0183,0.2704,0.2314,0.0797
210419,182458,197,21.482434,165.507122,-1.882248,Day,21:28:56.8,165:30:25.6,35.24,30.85,982.38,32.68,20.8103,30.0578,227.5781,-25.3023,9.4321,19.4413,-0.0015,0.0041,0.0175,0.2664,0.2333,0.0803
210419,182509,198,22.011073,165.971958,-1.483313,Day,22:00:39.9,165:58:19.0,34.7,30.8,982.34,31.89,354.7414,149.4583,295.125,-25.4504,9.0692,19.3021,-0.0012,0.0056,0.0158,0.2634,0.2323,0.0767
210419,182520,199,22.538122,166.440632,-1.071782,Day,22:32:17.2,166:26:26.3,35.78,30.82,982.34,32.07,312.3616,281.2984,231.2356,-25.5438,8.9882,19.674,-0.0007,0.0044,0.0173,0.2661,0.2333,0.077
210419,182531,200,23.111202,166.95642,-0.596341,Day,23:06:40.3,166:57:23.1,35.24,30.89,982.34,32.37,27.7134,41.0822,229.5648,-25.8285,8.3227,19.8441,-0.0007,0.0039,0.0173,0.2661,0.2348,0.0797
210419,182543,201,23.634743,167.433481,-0.133447,Day,23:38:05.1,167:26:00.5,35.24,30.87,982.35,32.2,349.0665,159.4883,291.6343,-26.0628,8.3674,20.3136,-0.001,0.0041,0.0156,0.2625,0.232,0.0803
210419,182554,202,24.156516,167.91475,0.353523,Day,24:09:23.5,167:54:53.1,34.7,30.84,982.36,31.97,319.0857,292.2392,220.3417,-26.0992,8.1011,20.5996,-0.0007,0.0039,0.0166,0.2649,0.2323,0.0794
210419,182605,203,24.676466,168.400349,0.860895,Day,24:40:35.3,168:24:01.3,35.24,30.78,982.34,32.16,33.3318,50.571,232.0725,-26.6466,7.4533,20.4013,-0.0015,0.0027,0.0175,0.2631,0.2314,0.0776
210419,182617,204,25.241533,168.935181,1.432899,Day,25:14:29.5,168:56:06.6,34.7,30.85,982.39,32.43,344.7461,167.8399,287.213,-26.6942,7.3211,20.7368,-0.0005,0.0034,0.0173,0.2658,0.2311,0.0785
210419,182628,205,25.75747,169.430233,1.970288,Day,25:45:26.9,169:25:48.8,34.7,30.93,982.35,32.3,336.71,328.429,202.7362,-27.2175,7.2298,20.5946,-0.0012,0.0036,0.0175,0.2661,0.2342,0.0785
210419,182639,206,26.27139,169.930011,2.517142,Day,26:16:17.0,169:55:48.0,35.24,30.87,982.36,32.65,31.5614,88.1244,255.0001,-27.6646,7.1279,21.0737,-0.0015,0.0041,0.0173,0.2619,0.2317,0.0785
210419,182650,207,26.783231,170.434653,3.071203,Day,26:46:59.6,170:26:04.8,35.24,30.82,982.35,32.42,325.3286,191.8649,277.1835,-27.8128,6.7932,21.2584,-0.0012,0.0044,0.0173,0.2631,0.2317,0.0776
210419,182702,208,27.339152,170.990863,3.68184,Day,27:20:20.9,170:59:27.1,35.24,30.84,982.38,32.23,354.4235,349.5784,197.9747,-28.1124,6.5239,21.1927,-0.0012,0.0039,0.0171,0.2631,0.2314,0.0785
210419,182713,209,27.846427,171.506091,4.245914,Day,27:50:47.1,171:30:21.9,35.24,30.82,982.36,32.63,22.0325,114.2062,267.2601,-28.5964,6.3087,21.0175,-0.001,0.0041,0.0185,0.2631,0.2314,0.0788
210419,182724,210,28.351408,172.026579,4.813101,Day,28:21:05.1,172:01:35.7,34.7,30.89,982.4,32.01,312.2262,217.9892,260.3663,-29.5933,5.9184,20.8292,-0.0012,0.0034,0.0168,0.2643,0.2299,0.0773
210419,182735,211,28.854028,172.55249,5.382747,Day,28:51:14.5,172:33:09.0,34.7,30.84,982.39,32.63,8.3694,6.2009,198.5148,-29.897,6.0962,21.3236,-0.001,0.0044,0.0197,0.2619,0.232,0.0794
210419,182747,212,29.399559,173.13255,6.006293,Day,29:23:58.4,173:07:57.2,34.7,30.75,982.36,32.89,11.2019,131.5001,272.5275,-30.1217,5.5759,21.6675,-0.0012,0.0039,0.0166,0.2649,0.2275,0.0788
210419,182758,213,29.897002,173.670236,6.579353,Day,29:53:49.2,173:40:12.9,35.24,30.82,982.32,32.4,307.9822,245.7491,237.6029,-29.8753,5.5834,22.1093,-0.0012,0.0044,0.0166,0.267,0.2305,0.0794
210419,182809,214,30.391845,174.213783,7.153483,Day,30:23:30.6,174:12:49.6,34.7,30.87,982.39,31.94,17.9967,20.7878,201.2076,-30.4687,5.3732,22.762,-0.0012,0.0044,0.0161,0.2646,0.2305,0.0782
210419,182820,215,30.928623,174.813583,7.780699,Day,30:55:43.0,174:48:48.9,35.24,30.8,982.34,32.53,0.6717,144.5381,272.9089,-30.7276,5.4225,23.1878,-0.0015,0.0039,0.0166,0.2634,0.2326,0.0794
210419,182832,216,31.417784,175.36982,8.356223,Day,31:25:04.0,175:22:11.4,34.7,30.78,982.35,32.49,309.8189,269.7763,217.6609,-31.0191,5.16,23.0934,-0.001,0.0036,0.0156,0.2689,0.2293,0.0782
210419,182843,217,31.904097,175.932381,8.932139,Day,31:54:14.7,175:55:56.6,35.24,30.82,982.39,32.54,25.7763,33.1164,204.871,-31.2171,4.5608,23.1075,-0.0015,0.0036,0.0173,0.2658,0.2302,0.08
210419,182854,218,32.38748,176.501405,9.508285,Day,32:23:14.9,176:30:05.1,34.7,30.82,982.37,32.42,353.767,155.3371,271.0245,-31.4016,4.6207,23.1042,-0.0012,0.0039,0.0175,0.2655,0.2333,0.0791
210419,182905,219,32.86784,177.077026,10.084517,Day,32:52:04.2,177:04:37.3,35.24,30.85,982.43,32.49,315.3906,286.3807,203.1254,-31.3725,4.3054,23.1311,-0.001,0.0051,0.0168,0.2683,0.2302,0.0773
210419,182917,220,33.388324,177.712698,10.71312,Day,33:23:18.0,177:42:45.7,35.24,30.85,982.36,32.52,31.5486,44.208,207.8253,-31.5176,4.1794,23.3418,-0.0012,0.0034,0.0168,0.2625,0.2314,0.08
210419,182928,221,33.862083,178.302635,11.289213,Day,33:51:43.5,178:18:09.5,34.7,30.76,982.36,32.4,348.2826,162.7237,269.0487,-32.0127,3.9314,23.5213,-0.001,0.0056,0.0188,0.2667,0.2302,0.0806
210419,182939,222,34.332537,178.899648,11.865092,Day,34:19:57.1,178:53:58.7,35.24,30.85,982.34,32.38,320.1833,295.1652,195.6352,-32.3358,3.9909,23.526,-0.0015,0.0039,0.0158,0.2658,0.2293,0.0791
210419,182950,223,34.841874,179.559212,12.493005,Day,34:50:30.7,179:33:33.2,35.24,30.73,982.36,32.14,34.8955,52.1438,211.483,-32.4577,3.9161,23.4168,-0.001,0.0041,0.0185,0.2612,0.2333,0.0794
210419,183002,224,35.305104,-179.828458,13.068203,Day,35:18:18.4,-179:49:42.4,35.24,30.84,982.33,32.04,344.3592,169.3729,265.2539,-32.3223,3.7254,23.5897,-0.0002,0.0046,0.0156,0.2631,0.2323,0.0788
210419,183013,225,35.764721,-179.20855,13.642978,Day,35:45:53.0,-179:12:30.8,34.7,30.76,982.37,32.45,338.7081,328.8618,181.8484,-32.2388,3.7398,23.9997,-0.0007,0.0046,0.0161,0.268,0.2329,0.0806
210419,183024,226,36.220623,-178.580938,14.217244,Day,36:13:14.2,-178:34:51.4,34.7,30.75,982.36,32.71,32.1624,90.3721,236.3045,-33.0766,3.496,24.2981,-0.001,0.0044,0.0171,0.2664,0.2323,0.0785
210419,183036,227,36.713609,-177.887264,14.843435,Day,36:42:49.0,-177:53:14.1,34.7,30.71,982.38,32.15,323.4903,192.4432,257.7043,-33.57,3.2627,24.2099,-0.0012,0.0032,0.0171,0.2612,0.2329,0.0803
210419,183047,228,37.161396,-177.242999,15.416903,Day,37:09:41.0,-177:14:34.8,34.7,30.82,982.36,32.4,355.9082,350.882,179.0597,-33.8064,3.12,24.3512,-0.0012,0.0041,0.0173,0.2649,0.2317,0.08
210419,183058,229,37.605126,-176.590525,15.989206,Day,37:36:18.5,-176:35:25.9,35.24,30.93,982.33,32.37,21.8091,116.1287,250.5778,-33.9551,2.8822,24.5184,-0.0005,0.0039,0.0166,0.2655,0.232,0.0809
210419,183109,230,38.04469,-175.929704,16.560719,Day,38:02:40.9,-175:55:46.9,35.24,30.89,982.35,32.57,311.7614,220.0238,240.4418,-34.362,2.6427,25.0958,-0.0012,0.0041,0.0161,0.2655,0.232,0.0809
210419,183121,231,38.51932,-175.199079,17.183325,Day,38:31:09.6,-175:11:56.7,34.7,30.89,982.32,32.63,9.0662,7.3963,181.9555,-34.8515,1.9572,25.4074,-0.0007,0.0034,0.0171,0.2637,0.2311,0.0791
210419,183132,232,38.949782,-174.520295,17.753173,Day,38:56:59.2,-174:31:13.1,35.24,30.66,982.34,32.26,10.5271,132.8363,256.4378,-35.0464,1.7367,25.1996,-0.001,0.0041,0.0166,0.2646,0.229,0.0785
210419,183143,233,39.375706,-173.832672,18.322158,Day,39:22:32.5,-173:49:57.6,35.78,30.73,982.34,32.45,306.6793,247.9569,219.9092,-35.1983,1.9768,25.6646,-0.0015,0.0044,0.0161,0.2646,0.2314,0.0794
210419,183154,234,39.796958,-173.136088,18.89021,Day,39:47:49.0,-173:08:09.9,34.7,30.75,982.38,32.2,18.138,22.5472,185.9521,-35.8865,1.7136,26.5816,-0.0012,0.0041,0.0175,0.2667,0.232,0.0782
210419,183206,235,40.251036,-172.36578,19.508786,Day,40:15:03.7,-172:21:56.8,35.24,30.66,982.33,32.4,359.6192,144.5531,258.6045,-35.7993,1.7332,26.4109,-0.0017,0.0061,0.0171,0.264,0.2311,0.0794
210419,183217,236,40.662114,-171.649989,20.074732,Day,40:39:43.6,-171:39:00.0,34.7,30.78,982.36,32.88,308.5777,271.2001,202.741,-36.0735,1.3798,26.4458,-0.0015,0.0041,0.0178,0.2634,0.2302,0.0815
210419,183228,237,41.068117,-170.924787,20.639602,Day,41:04:05.2,-170:55:29.2,35.24,30.82,982.36,32.57,23.8218,34.7414,192.4796,-36.3584,1.3078,26.7122,-0.0005,0.0034,0.0161,0.2652,0.2329,0.0779
210419,183239,238,41.468913,-170.19005,21.20334,Day,41:28:08.1,-170:11:24.2,35.24,30.78,982.36,32.35,351.344,153.2586,258.8612,-36.7686,0.9515,26.8174,-0.0012,0.0049,0.0178,0.2686,0.2336,0.0794
210419,183251,239,41.900038,-169.37749,21.816978,Day,41:54:00.1,-169:22:39.0,34.7,30.69,982.37,32.82,312.0036,287.5042,190.6315,-37.2258,0.5988,27.073,-0.0012,0.0044,0.0171,0.2643,0.232,0.0809
210419,183302,240,42.289485,-168.622412,22.378182,Day,42:17:22.1,-168:37:20.7,34.7,30.73,982.33,32.63,28.3186,44.979,196.6393,-37.3591,0.6568,26.9594,-0.0012,0.0053,0.0173,0.2655,0.2317,0.0779
210419,183313,241,42.673284,-167.857431,22.938089,Day,42:40:23.8,-167:51:26.8,35.24,30.75,982.35,32.54,345.5028,160.9691,257.1073,-38.0749,0.0938,26.7497,-0.002,0.0039,0.0156,0.2643,0.2302,0.0794
210419,183324,242,43.051283,-167.082437,23.496648,Day,43:03:04.6,-167:04:56.8,35.24,30.73,982.36,32.63,317.0091,298.8335,182.4826,-37.9373,0.0743,27.0698,-0.0005,0.0036,0.0144,0.2637,0.232,0.0779
210419,183336,243,43.45686,-166.225453,24.104385,Day,43:27:24.7,-166:13:31.6,34.7,30.76,982.39,32.13,30.3436,55.3045,202.0548,-38.4432,0.0574,27.5062,-0.0012,0.0039,0.0173,0.2625,0.2329,0.0809
210419,183347,244,43.822255,-165.429203,24.659952,Day,43:49:20.1,-165:25:45.1,34.7,30.85,982.35,32.33,339.1855,167.0445,255.1171,-38.6307,-0.1093,27.5935,-0.001,0.0056,0.0168,0.2661,0.236,0.08
210419,183358,245,44.181379,-164.622654,25.214007,Day,44:10:53.0,-164:37:21.6,35.78,30.76,982.36,32.25,336.6017,333.7041,169.6176,-38.6418,-0.1824,27.6562,-0.0012,0.0041,0.0195,0.267,0.2308,0.0788
210419,183409,246,44.53408,-163.805736,25.766486,Day,44:32:02.7,-163:48:20.6,35.24,30.75,982.38,32.1,27.7689,91.2365,226.6035,-38.7897,-0.6953,27.9628,-0.0012,0.0039,0.0188,0.2652,0.2329,0.0788
210419,183421,247,44.911332,-162.902662,26.36732,Day,44:54:40.8,-162:54:09.6,35.24,30.66,982.38,32.59,319.4609,190.8368,249.5577,-39.0844,-0.978,29.0861,-0.0012,0.0044,0.0146,0.264,0.2305,0.08
210419,183432,248,45.250085,-162.063887,26.916312,Day,45:15:00.3,-162:03:50.0,34.7,30.82,982.37,32.46,353.6239,354.6118,169.419,-39.4999,-1.001,29.0101,-0.0012,0.0041,0.0178,0.2686,0.2305,0.0785
210419,183443,249,45.58192,-161.214581,27.463549,Day,45:34:54.9,-161:12:52.5,34.7,30.71,982.42,32.37,18.1708,114.9098,241.7611,-39.803,-0.8479,28.6173,-0.001,0.0041,0.0193,0.2658,0.2308,0.0803
210419,183454,250,45.93584,-160.276044,28.05845,Day,45:56:09.0,-160:16:33.8,35.78,30.75,982.35,32.82,307.9649,218.8741,234.3833,-40.0709,-0.8097,28.38,-0.001,0.0044,0.0183,0.2628,0.2323,0.08
210419,183506,251,46.252675,-159.40469,28.601796,Day,46:15:09.6,-159:24:16.9,34.7,30.78,982.36,32.56,6.7297,10.451,175.0505,-39.8099,-1.2859,28.6747,-0.0017,0.0041,0.0188,0.2655,0.2348,0.0785
210419,183517,252,46.562083,-158.522789,29.143181,Day,46:33:43.5,-158:31:22.0,34.7,30.66,982.35,32.78,7.1214,131.0376,249.7641,-39.9985,-1.3915,28.5306,-0.0017,0.0034,0.0188,0.2661,0.2299,0.0794
210419,183528,253,46.863892,-157.630357,29.682544,Day,46:51:50.0,-157:37:49.3,34.7,30.84,982.36,32.47,303.5074,248.2746,214.1726,-40.2622,-1.6786,29.2626,-0.0012,0.0044,0.018,0.2661,0.2329,0.0806
210419,183539,254,47.184282,-156.644843,30.268543,Day,47:11:03.4,-156:38:41.4,35.24,30.73,982.35,32.41,15.9227,23.5382,181.049,-40.5498,-1.9186,29.6652,-0.0015,0.0049,0.0185,0.2649,0.2308,0.0806
210419,183551,255,47.469671,-155.730553,30.803436,Day,47:28:10.8,-155:43:50.0,34.7,30.84,982.37,32.19,357.5633,142.9993,251.8531,-40.6983,-2.2791,29.868,-0.001,0.0039,0.0175,0.2643,0.2311,0.08
210419,183602,256,47.746946,-154.80591,31.336085,Day,47:44:49.0,-154:48:21.3,35.24,30.8,982.34,32.85,305.0778,273.222,193.9316,-40.9719,-2.1259,29.8864,-0.001,0.0051,0.019,0.2649,0.2308,0.0809
210419,183613,257,48.015943,-153.871021,31.866405,Day,48:00:57.4,-153:52:15.7,35.24,30.76,982.39,32.66,21.3599,36.073,185.4915,-41.3901,-2.6874,30.3212,-0.0012,0.0041,0.0156,0.2643,0.2339,0.0806
210419,183624,258,48.299758,-152.839594,32.442186,Day,48:17:59.1,-152:50:22.5,35.24,30.76,982.35,32.6,349.3495,150.7467,252.3621,-41.7193,-2.458,30.6511,-0.0012,0.0044,0.0175,0.264,0.2308,0.0791
210419,183636,259,48.550907,-151.883668,32.96739,Day,48:33:03.3,-151:53:01.2,35.24,30.78,982.34,32.63,308.6575,289.242,182.8374,-41.7053,-2.9465,31.1994,-0.0015,0.0046,0.0193,0.2634,0.2314,0.0794
210419,183647,260,48.79327,-150.917906,33.490023,Day,48:47:35.8,-150:55:04.5,34.7,30.84,982.38,32.74,24.5305,46.0564,190.8884,-41.9974,-3.2492,31.4314,-0.0015,0.0034,0.0163,0.2637,0.2336,0.0785
210419,183658,261,49.026685,-149.942487,34.010001,Day,49:01:36.1,-149:56:33.0,35.78,30.73,982.37,32.97,343.1248,157.6878,251.8576,-42.3063,-3.2629,31.7147,-0.0012,0.0044,0.0178,0.2655,0.2317,0.0782
210419,183710,262,49.270925,-148.867648,34.574103,Day,49:16:15.3,-148:52:03.5,35.24,30.71,982.37,32.42,313.5932,301.0591,174.7127,-42.6783,-3.6329,32.1985,-0.0007,0.0034,0.0156,0.2667,0.232,0.077
210419,183721,263,49.485117,-147.872735,35.088236,Day,49:29:06.4,-147:52:21.8,35.24,30.71,982.35,31.34,26.8647,54.7109,196.4685,-42.7458,-3.7065,32.5302,-0.0015,0.0036,0.0193,0.2628,0.2329,0.0806
210419,183732,264,49.689879,-146.868861,35.599434,Day,49:41:23.6,-146:52:07.9,34.7,30.76,982.38,32.12,337.7989,164.3147,250.8839,-42.75,-3.8194,32.7076,-0.0005,0.0049,0.0178,0.2661,0.2326,0.0782
210419,183743,265,49.885062,-145.856313,36.107597,Day,49:53:06.2,-145:51:22.7,35.24,30.67,982.38,32.36,334.4872,335.0224,162.3193,-42.7075,-3.9574,32.6889,-0.0007,0.0049,0.0151,0.2658,0.2339,0.0794
210419,183755,266,50.086897,-144.742159,36.65838,Day,50:05:12.8,-144:44:31.8,34.7,30.75,982.42,32.88,26.184,90.1718,219.7962,-43.2771,-4.5425,32.9828,-0.0015,0.0053,0.0178,0.264,0.2336,0.0785
210419,183806,267,50.26159,-143.712426,37.159887,Day,50:15:41.7,-143:42:44.7,35.24,30.69,982.39,32.11,318.618,189.4105,244.1275,-43.4351,-4.4478,33.0166,-0.0012,0.0049,0.0166,0.2637,0.2336,0.0815
210419,183817,268,50.426269,-142.675002,37.658043,Day,50:25:34.6,-142:40:30.0,34.7,30.62,982.38,32.86,352.6031,354.8907,162.9414,-43.8441,-4.5595,33.2185,-0.0015,0.0044,0.0166,0.2689,0.2323,0.0797
210419,183828,269,50.580812,-141.630243,38.152747,Day,50:34:50.9,-141:37:48.9,34.7,30.71,982.4,32.92,17.2913,114.4004,234.704,-43.8346,-4.352,33.2347,-0.0012,0.0049,0.0154,0.2634,0.2296,0.0791
210419,183840,270,50.737698,-140.48258,38.688357,Day,50:44:15.7,-140:28:57.3,34.7,30.76,982.35,32.95,306.5376,218.2344,227.7264,-43.9588,-4.3335,33.7394,-0.001,0.0041,0.0161,0.2637,0.2317,0.0779
210419,183851,271,50.870648,-139.42375,39.175482,Day,50:52:14.3,-139:25:25.5,34.7,30.58,982.32,32.59,5.776,11.355,168.4273,-44.1586,-4.4159,33.9188,-0.0012,0.0044,0.0166,0.2631,0.2326,0.077
210419,183902,272,50.993103,-138.358841,39.6588,Day,50:59:35.2,-138:21:31.8,35.24,30.78,982.39,32.79,6.0658,130.6191,242.2379,-44.0584,-4.9489,34.5095,-0.0007,0.0049,0.019,0.2649,0.2329,0.0767
210419,183913,273,51.104958,-137.288305,40.138191,Day,51:06:17.8,-137:17:17.9,34.7,30.75,982.39,32.88,302.3079,248.6371,206.3576,-44.1751,-4.866,35.2358,-0.0015,0.0034,0.018,0.2658,0.2323,0.0797
210419,183925,274,51.21478,-136.114564,40.656541,Day,51:12:53.2,-136:06:52.4,35.24,30.67,982.39,32.44,15.5513,25.0484,173.7384,-44.7233,-5.0614,35.4781,-0.001,0.0044,0.0156,0.2634,0.2323,0.0782
210419,183936,275,51.304177,-135.033782,41.127315,Day,51:18:15.0,-135:02:01.6,34.7,30.71,982.36,32.28,356.3928,142.8838,245.0551,-44.804,-5.32,35.1832,-0.0012,0.0044,0.0185,0.2664,0.2326,0.0776
210419,183947,276,51.382707,-133.948848,41.593776,Day,51:22:57.7,-133:56:55.9,35.24,30.69,982.35,32.72,304.5596,275.4414,185.8615,-45.1507,-5.6942,35.2374,-0.0015,0.0034,0.0154,0.2649,0.2308,0.0794
210419,183958,277,51.45591,-132.761187,42.09754,Day,51:27:21.3,-132:45:40.3,35.78,30.69,982.37,32.41,21.3388,38.0647,179.9297,-45.2612,-6.0754,35.1758,-0.0012,0.0032,0.0168,0.2649,0.2308,0.0803
210419,184010,278,51.511514,-131.669286,42.554513,Day,51:30:41.5,-131:40:09.4,35.78,30.78,982.37,32.85,347.3226,152.0771,246.206,-45.1126,-6.0455,35.8059,-0.0007,0.0041,0.0163,0.2661,0.2339,0.0806
210419,184021,279,51.556074,-130.574885,43.00673,Day,51:33:21.9,-130:34:29.6,34.7,30.67,982.37,32.35,308.2345,294.1091,172.9747,-45.2086,-5.9691,36.1628,-0.0002,0.0046,0.0166,0.2643,0.232,0.0794
210419,184032,280,51.589553,-129.478516,43.454043,Day,51:35:22.4,-129:28:42.7,34.7,30.64,982.34,32.34,24.8283,48.4098,186.2992,-45.3818,-6.1612,36.5393,-0.0007,0.0056,0.0158,0.2652,0.2339,0.0797
210419,184044,281,51.613393,-128.280884,43.936254,Day,51:36:48.2,-128:16:51.2,34.7,30.66,982.37,32.39,341.734,159.1456,246.2806,-45.6768,-6.2661,36.6603,-0.001,0.0046,0.0158,0.264,0.2329,0.0794
210419,184055,282,51.623611,-127.182207,44.372819,Day,51:37:25.0,-127:10:55.9,34.7,30.66,982.37,32.89,313.5703,303.4338,167.1144,-45.8194,-6.4543,37.0879,-0.0017,0.0036,0.0175,0.2652,0.2314,0.0785
210419,184106,283,51.622679,-126.083298,44.804002,Day,51:37:21.6,-126:04:59.9,34.7,30.66,982.37,32.12,26.8042,56.5259,190.3061,-45.8771,-6.5251,37.1084,-0.001,0.0049,0.0168,0.2649,0.2305,0.0797
210419,184117,284,51.610607,-124.984703,45.229636,Day,51:36:38.2,-124:59:04.9,34.7,30.67,982.37,32.35,336.4549,163.9016,244.6351,-45.8639,-6.4662,37.7362,-0.001,0.0036,0.0183,0.264,0.232,0.0812
210419,184129,285,51.584737,-123.787275,45.687439,Day,51:35:05.1,-123:47:14.2,34.7,30.73,982.39,32.64,316.7561,311.4559,161.9612,-45.8421,-6.3636,37.8485,-0.001,0.0039,0.0183,0.2664,0.2333,0.0788
210419,184140,286,51.549408,-122.69118,46.100922,Day,51:32:57.9,-122:41:28.2,34.7,30.66,982.39,32.53,27.146,62.8477,193.7802,-45.3457,-6.292,37.8569,-0.0015,0.0036,0.0175,0.267,0.2305,0.0785
210419,184151,287,51.502997,-121.59712,46.508332,Day,51:30:10.8,-121:35:49.6,34.7,30.75,982.45,32.52,332.8239,167.8478,243.796,-45.5895,-6.4342,37.9597,-0.001,0.0053,0.0154,0.2634,0.2326,0.08
210419,184202,288,51.445548,-120.50567,46.909473,Day,51:26:44.0,-120:30:20.4,35.24,30.6,982.38,32.8,337.7424,339.9761,154.2574,-45.8257,-6.2095,38.7222,-0.0015,0.0058,0.0173,0.2631,0.2281,0.0788
210419,184214,289,51.370351,-119.318569,47.33973,Day,51:22:13.3,-119:19:06.8,35.78,30.66,982.39,32.32,23.7987,95.3057,215.4458,-46.0028,-6.2289,38.7772,-0.001,0.0051,0.0149,0.2649,0.2323,0.0788
210419,184225,290,51.289994,-118.234263,47.727183,Day,51:17:24.0,-118:14:03.3,34.7,30.76,982.43,32.63,314.2979,193.2739,234.4291,-46.478,-6.2486,39.2749,-0.001,0.0046,0.0175,0.264,0.2302,0.0797
210419,184236,291,51.198787,-117.154164,48.107795,Day,51:11:55.6,-117:09:15.0,35.24,30.75,982.39,32.34,354.5239,358.9337,156.0846,-46.5461,-6.6288,39.2167,-0.001,0.0041,0.0173,0.2625,0.2302,0.0791
210419,184247,292,51.087001,-115.981257,48.514977,Day,51:05:13.2,-115:58:52.5,35.24,30.67,982.41,33.04,14.1794,116.7536,229.0903,-46.3096,-6.82,39.2976,-0.001,0.0029,0.0173,0.2652,0.2293,0.0791
210419,184259,293,50.97336,-114.911567,48.880652,Day,50:58:24.1,-114:54:41.6,35.24,30.73,982.41,33.0,303.9165,222.0453,218.3001,-46.3053,-6.5308,39.788,-0.001,0.0041,0.0178,0.2655,0.232,0.0791
210419,184310,294,50.849136,-113.847567,49.238868,Day,50:50:56.9,-113:50:51.2,34.7,30.6,982.43,32.23,6.6965,13.5096,162.0608,-46.2273,-6.6451,39.9759,-0.001,0.0046,0.0173,0.2649,0.232,0.08
210419,184321,295,50.714428,-112.789721,49.589424,Day,50:42:51.9,-112:47:23.0,35.24,30.57,982.44,32.5,4.3342,131.6114,236.6806,-46.6738,-6.2337,40.2632,-0.0012,0.0046,0.0173,0.2646,0.2323,0.0794
210419,184332,296,50.55565,-111.643212,49.962868,Day,50:33:20.3,-111:38:35.6,34.7,30.67,982.42,32.91,301.2148,251.535,197.7762,-46.6865,-6.3305,40.2763,-0.001,0.0046,0.0163,0.2634,0.2314,0.0791
210419,184344,297,50.399385,-110.599559,50.296734,Day,50:23:57.8,-110:35:58.4,35.24,30.62,982.48,32.99,14.6048,26.2234,168.8233,-46.4714,-6.4939,40.3828,-0.0012,0.0036,0.0146,0.2634,0.2302,0.0779
210419,184355,298,50.233002,-109.563304,50.622292,Day,50:13:58.8,-109:33:47.9,35.24,30.73,982.42,33.04,354.8995,141.4001,241.4272,-46.7118,-6.5575,40.9029,-0.0012,0.0046,0.0149,0.2646,0.2326,0.0794
210419,184406,299,50.056629,-108.5348,50.939325,Day,50:03:23.9,-108:32:05.3,35.24,30.73,982.47,32.51,302.6052,276.1342,181.3178,-46.6333,-6.7987,41.7087,-0.0015,0.0046,0.0168,0.2631,0.2323,0.0785
210419,184417,300,49.852987,-107.422039,51.275207,Day,49:51:10.8,-107:25:19.3,35.24,30.8,982.44,32.62,19.5466,37.8375,175.57,-46.5459,-6.9323,41.9162,-0.0017,0.0036,0.0178,0.2634,0.2314,0.0794
210419,184429,301,49.656165,-106.410823,51.573727,Day,49:39:22.2,-106:24:39.0,34.7,30.51,982.46,32.83,347.0019,149.0909,242.7381,-46.6998,-6.825,41.9746,-0.0015,0.0036,0.0156,0.2658,0.2339,0.0803
210419,184440,302,49.449784,-105.408329,51.863061,Day,49:26:59.2,-105:24:30.0,34.7,30.64,982.43,32.98,305.3537,293.1109,170.0372,-46.6842,-6.6045,42.2312,-0.001,0.0049,0.0166,0.2643,0.232,0.0794
210419,184451,303,49.233998,-104.41483,52.142986,Day,49:14:02.4,-104:24:53.4,34.7,30.69,982.46,32.74,22.0137,47.6652,181.8784,-46.6927,-6.6822,42.9593,-0.001,0.0036,0.0185,0.2649,0.232,0.0794
210419,184502,304,48.988043,-103.341554,52.437384,Day,48:59:17.0,-103:20:29.6,34.7,30.75,982.49,32.37,340.1758,155.5732,243.9238,-46.9519,-6.8285,43.5959,-0.002,0.0046,0.019,0.2655,0.2329,0.0791
210419,184514,305,48.753081,-102.367631,52.696955,Day,48:45:11.1,-102:22:03.5,34.7,30.58,982.51,32.63,310.075,304.7067,163.6613,-46.9446,-7.327,44.05,-0.002,0.0046,0.0161,0.2674,0.2296,0.08
